<?xml version="1.0" encoding="UTF-8"?>
<kml xmlns="http://www.opengis.net/kml/2.2">
  <Document>
    <name>Keskeny nyomtávú vasútállomások</name>
    <Style id="icon-1739-E65100-nodesc-normal">
      <IconStyle>
        <color>ff0051e6</color>
        <scale>1</scale>
        <Icon>
          <href>https://www.gstatic.com/mapspro/images/stock/503-wht-blank_maps.png</href>
        </Icon>
      </IconStyle>
      <LabelStyle>
        <scale>0</scale>
      </LabelStyle>
      <BalloonStyle>
        <text><![CDATA[<h3>$[name]</h3>]]></text>
      </BalloonStyle>
    </Style>
    <Style id="icon-1739-E65100-nodesc-highlight">
      <IconStyle>
        <color>ff0051e6</color>
        <scale>1</scale>
        <Icon>
          <href>https://www.gstatic.com/mapspro/images/stock/503-wht-blank_maps.png</href>
        </Icon>
      </IconStyle>
      <LabelStyle>
        <scale>1</scale>
      </LabelStyle>
      <BalloonStyle>
        <text><![CDATA[<h3>$[name]</h3>]]></text>
      </BalloonStyle>
    </Style>
    <StyleMap id="icon-1739-E65100-nodesc">
      <Pair>
        <key>normal</key>
        <styleUrl>#icon-1739-E65100-nodesc-normal</styleUrl>
      </Pair>
      <Pair>
        <key>highlight</key>
        <styleUrl>#icon-1739-E65100-nodesc-highlight</styleUrl>
      </Pair>
    </StyleMap>
    <Placemark>
      <name>Baláta</name>
      <styleUrl>#icon-1739-E65100-nodesc</styleUrl>
      <Point>
        <coordinates>
          17.2116001,46.3063148,0
        </coordinates>
      </Point>
    </Placemark>
    <Placemark>
      <name>Kaszó</name>
      <styleUrl>#icon-1739-E65100-nodesc</styleUrl>
      <Point>
        <coordinates>
          17.2203039,46.317349,0
        </coordinates>
      </Point>
    </Placemark>
    <Placemark>
      <name>Mesztegnyő</name>
      <styleUrl>#icon-1739-E65100-nodesc</styleUrl>
      <Point>
        <coordinates>
          17.4337189,46.5074611,0
        </coordinates>
      </Point>
    </Placemark>
    <Placemark>
      <name>Felsőkak</name>
      <styleUrl>#icon-1739-E65100-nodesc</styleUrl>
      <Point>
        <coordinates>
          17.5088844,46.481219,0
        </coordinates>
      </Point>
    </Placemark>
    <Placemark>
      <name>Sasrét</name>
      <styleUrl>#icon-1739-E65100-nodesc</styleUrl>
      <Point>
        <coordinates>
          17.8899572,46.204803,0
        </coordinates>
      </Point>
    </Placemark>
    <Placemark>
      <name>Almamellék</name>
      <styleUrl>#icon-1739-E65100-nodesc</styleUrl>
      <Point>
        <coordinates>
          17.889174,46.1676428,0
        </coordinates>
      </Point>
    </Placemark>
    <Placemark>
      <name>Királyrét</name>
      <styleUrl>#icon-1739-E65100-nodesc</styleUrl>
      <Point>
        <coordinates>
          18.9790525,47.8939028,0
        </coordinates>
      </Point>
    </Placemark>
    <Placemark>
      <name>Kismaros</name>
      <styleUrl>#icon-1739-E65100-nodesc</styleUrl>
      <Point>
        <coordinates>
          19.0135212,47.8274326,0
        </coordinates>
      </Point>
    </Placemark>
    <Placemark>
      <name>Márianosztra</name>
      <styleUrl>#icon-1739-E65100-nodesc</styleUrl>
      <Point>
        <coordinates>
          18.8657666,47.8661846,0
        </coordinates>
      </Point>
    </Placemark>
    <Placemark>
      <name>Nagyirtás</name>
      <styleUrl>#icon-1739-E65100-nodesc</styleUrl>
      <Point>
        <coordinates>
          18.8766733,47.9012788,0
        </coordinates>
      </Point>
    </Placemark>
    <Placemark>
      <name>Nagybörzsöny</name>
      <styleUrl>#icon-1739-E65100-nodesc</styleUrl>
      <Point>
        <coordinates>
          18.8378235,47.9312274,0
        </coordinates>
      </Point>
    </Placemark>
    <Placemark>
      <name>Feketevölgy</name>
      <styleUrl>#icon-1739-E65100-nodesc</styleUrl>
      <Point>
        <coordinates>
          18.8968705,47.9834502,0
        </coordinates>
      </Point>
    </Placemark>
    <Placemark>
      <name>Kemence</name>
      <styleUrl>#icon-1739-E65100-nodesc</styleUrl>
      <Point>
        <coordinates>
          18.8931409,48.0130914,0
        </coordinates>
      </Point>
    </Placemark>
    <Placemark>
      <name>Gyöngyös</name>
      <styleUrl>#icon-1739-E65100-nodesc</styleUrl>
      <Point>
        <coordinates>
          19.9334923,47.7840957,0
        </coordinates>
      </Point>
    </Placemark>
    <Placemark>
      <name>Mátrafüred</name>
      <styleUrl>#icon-1739-E65100-nodesc</styleUrl>
      <Point>
        <coordinates>
          19.9718985,47.8277192,0
        </coordinates>
      </Point>
    </Placemark>
    <Placemark>
      <name>Lillafüred</name>
      <styleUrl>#icon-1739-E65100-nodesc</styleUrl>
      <Point>
        <coordinates>
          20.622729,48.1035769,0
        </coordinates>
      </Point>
    </Placemark>
    <Placemark>
      <name>Pisztrángtelep</name>
      <styleUrl>#icon-1739-E65100-nodesc</styleUrl>
      <Point>
        <coordinates>
          20.5790756,48.1160194,0
        </coordinates>
      </Point>
    </Placemark>
    <Placemark>
      <name>Hortobágy-halastó</name>
      <styleUrl>#icon-1739-E65100-nodesc</styleUrl>
      <Point>
        <coordinates>
          21.069603,47.6053848,0
        </coordinates>
      </Point>
    </Placemark>
    <Placemark>
      <name>Festetics Antal</name>
      <styleUrl>#icon-1739-E65100-nodesc</styleUrl>
      <Point>
        <coordinates>
          21.0883898,47.6474124,0
        </coordinates>
      </Point>
    </Placemark>
    <Placemark>
      <name>Pörböly</name>
      <styleUrl>#icon-1739-E65100-nodesc</styleUrl>
      <Point>
        <coordinates>
          18.8255006,46.2002079,0
        </coordinates>
      </Point>
    </Placemark>
    <Placemark>
      <name>Hűvösvölgy</name>
      <styleUrl>#icon-1739-E65100-nodesc</styleUrl>
      <Point>
        <coordinates>
          18.9636411,47.5410555,0
        </coordinates>
      </Point>
    </Placemark>
    <Placemark>
      <name>Jánoshegy</name>
      <styleUrl>#icon-1739-E65100-nodesc</styleUrl>
      <Point>
        <coordinates>
          18.9504631,47.514297,0
        </coordinates>
      </Point>
    </Placemark>
    <Placemark>
      <name>Széchenyihegy</name>
      <styleUrl>#icon-1739-E65100-nodesc</styleUrl>
      <Point>
        <coordinates>
          18.9770115,47.4940925,0
        </coordinates>
      </Point>
    </Placemark>
    <Placemark>
      <name>Poprad-Tatry</name>
      <styleUrl>#icon-1739-E65100-nodesc</styleUrl>
      <Point>
        <coordinates>
          20.2952496,49.0602338,0
        </coordinates>
      </Point>
    </Placemark>
    <Placemark>
      <name>Nová Lesná</name>
      <styleUrl>#icon-1739-E65100-nodesc</styleUrl>
      <Point>
        <coordinates>
          20.2626497,49.1161291,0
        </coordinates>
      </Point>
    </Placemark>
    <Placemark>
      <name>Starý Smokovec</name>
      <styleUrl>#icon-1739-E65100-nodesc</styleUrl>
      <Point>
        <coordinates>
          20.2224923,49.1393373,0
        </coordinates>
      </Point>
    </Placemark>
    <Placemark>
      <name>Tatranská Lomnica</name>
      <styleUrl>#icon-1739-E65100-nodesc</styleUrl>
      <Point>
        <coordinates>
          20.27956,49.16469,0
        </coordinates>
      </Point>
    </Placemark>
    <Placemark>
      <name>Vyšné Hágy</name>
      <styleUrl>#icon-1739-E65100-nodesc</styleUrl>
      <Point>
        <coordinates>
          20.1231277,49.1188413,0
        </coordinates>
      </Point>
    </Placemark>
    <Placemark>
      <name>Szalajka-Fatelep</name>
      <styleUrl>#icon-1739-E65100-nodesc</styleUrl>
      <Point>
        <coordinates>
          20.392698,48.095372,0
        </coordinates>
      </Point>
    </Placemark>
    <Placemark>
      <name>Szalajka-Fátyolvízesés</name>
      <styleUrl>#icon-1739-E65100-nodesc</styleUrl>
      <Point>
        <coordinates>
          20.413275,48.075114,0
        </coordinates>
      </Point>
    </Placemark>
  </Document>
</kml>
