<?xml version="1.0" encoding="UTF-8"?>
<kml xmlns="http://www.opengis.net/kml/2.2">
  <Document>
    <name>Széles/normál nyomtávú vasútállomások</name>
    <Style id="icon-1739-0288D1-normal">
      <IconStyle>
        <color>ffd18802</color>
        <scale>1</scale>
        <Icon>
          <href>https://www.gstatic.com/mapspro/images/stock/503-wht-blank_maps.png</href>
        </Icon>
      </IconStyle>
      <LabelStyle>
        <scale>0</scale>
      </LabelStyle>
    </Style>
    <Style id="icon-1739-0288D1-highlight">
      <IconStyle>
        <color>ffd18802</color>
        <scale>1</scale>
        <Icon>
          <href>https://www.gstatic.com/mapspro/images/stock/503-wht-blank_maps.png</href>
        </Icon>
      </IconStyle>
      <LabelStyle>
        <scale>1</scale>
      </LabelStyle>
    </Style>
    <StyleMap id="icon-1739-0288D1">
      <Pair>
        <key>normal</key>
        <styleUrl>#icon-1739-0288D1-normal</styleUrl>
      </Pair>
      <Pair>
        <key>highlight</key>
        <styleUrl>#icon-1739-0288D1-highlight</styleUrl>
      </Pair>
    </StyleMap>
    <Placemark>
      <name>Vác-Alsóváros</name>
      <description><![CDATA[<br><br>leírás: ]]></description>
      <styleUrl>#icon-1739-0288D1</styleUrl>
      <ExtendedData>
        <Data name="leírás">
          <value/>
        </Data>
      </ExtendedData>
      <Point>
        <coordinates>
          19.149365,47.773574,0
        </coordinates>
      </Point>
    </Placemark>
    <Placemark>
      <name>Vác</name>
      <description><![CDATA[<br><br>leírás: ]]></description>
      <styleUrl>#icon-1739-0288D1</styleUrl>
      <ExtendedData>
        <Data name="leírás">
          <value/>
        </Data>
      </ExtendedData>
      <Point>
        <coordinates>
          19.133056,47.782778,0
        </coordinates>
      </Point>
    </Placemark>
    <Placemark>
      <name>Máriaudvar</name>
      <description><![CDATA[<br><br>leírás: ]]></description>
      <styleUrl>#icon-1739-0288D1</styleUrl>
      <ExtendedData>
        <Data name="leírás">
          <value/>
        </Data>
      </ExtendedData>
      <Point>
        <coordinates>
          19.163522,47.752689,0
        </coordinates>
      </Point>
    </Placemark>
    <Placemark>
      <name>Vácrátót</name>
      <description><![CDATA[<br><br>leírás: ]]></description>
      <styleUrl>#icon-1739-0288D1</styleUrl>
      <ExtendedData>
        <Data name="leírás">
          <value/>
        </Data>
      </ExtendedData>
      <Point>
        <coordinates>
          19.217778,47.732778,0
        </coordinates>
      </Point>
    </Placemark>
    <Placemark>
      <name>Váchartyán</name>
      <description><![CDATA[<br><br>leírás: ]]></description>
      <styleUrl>#icon-1739-0288D1</styleUrl>
      <ExtendedData>
        <Data name="leírás">
          <value/>
        </Data>
      </ExtendedData>
      <Point>
        <coordinates>
          19.248889,47.725833,0
        </coordinates>
      </Point>
    </Placemark>
    <Placemark>
      <name>Rudnaykert</name>
      <description><![CDATA[<br><br>leírás: ]]></description>
      <styleUrl>#icon-1739-0288D1</styleUrl>
      <ExtendedData>
        <Data name="leírás">
          <value/>
        </Data>
      </ExtendedData>
      <Point>
        <coordinates>
          19.257778,47.7175,0
        </coordinates>
      </Point>
    </Placemark>
    <Placemark>
      <name>Erdőkertes</name>
      <description><![CDATA[<br><br>leírás: ]]></description>
      <styleUrl>#icon-1739-0288D1</styleUrl>
      <ExtendedData>
        <Data name="leírás">
          <value/>
        </Data>
      </ExtendedData>
      <Point>
        <coordinates>
          19.295876,47.662212,0
        </coordinates>
      </Point>
    </Placemark>
    <Placemark>
      <name>Veresegyház</name>
      <description><![CDATA[<br><br>leírás: ]]></description>
      <styleUrl>#icon-1739-0288D1</styleUrl>
      <ExtendedData>
        <Data name="leírás">
          <value/>
        </Data>
      </ExtendedData>
      <Point>
        <coordinates>
          19.288611,47.649167,0
        </coordinates>
      </Point>
    </Placemark>
    <Placemark>
      <name>Ivacs</name>
      <description><![CDATA[<br><br>leírás: ]]></description>
      <styleUrl>#icon-1739-0288D1</styleUrl>
      <ExtendedData>
        <Data name="leírás">
          <value/>
        </Data>
      </ExtendedData>
      <Point>
        <coordinates>
          19.274077,47.641869,0
        </coordinates>
      </Point>
    </Placemark>
    <Placemark>
      <name>Fótújfalu</name>
      <description><![CDATA[<br><br>leírás: ]]></description>
      <styleUrl>#icon-1739-0288D1</styleUrl>
      <ExtendedData>
        <Data name="leírás">
          <value/>
        </Data>
      </ExtendedData>
      <Point>
        <coordinates>
          19.192778,47.615,0
        </coordinates>
      </Point>
    </Placemark>
    <Placemark>
      <name>Rákospalota-Újpest</name>
      <description><![CDATA[<br><br>leírás: ]]></description>
      <styleUrl>#icon-1739-0288D1</styleUrl>
      <ExtendedData>
        <Data name="leírás">
          <value/>
        </Data>
      </ExtendedData>
      <Point>
        <coordinates>
          19.112009,47.565806,0
        </coordinates>
      </Point>
    </Placemark>
    <Placemark>
      <name>Istvántelek</name>
      <description><![CDATA[<br><br>leírás: ]]></description>
      <styleUrl>#icon-1739-0288D1</styleUrl>
      <ExtendedData>
        <Data name="leírás">
          <value/>
        </Data>
      </ExtendedData>
      <Point>
        <coordinates>
          19.106338,47.55029,0
        </coordinates>
      </Point>
    </Placemark>
    <Placemark>
      <name>Rákosrendező</name>
      <description><![CDATA[<br><br>leírás: ]]></description>
      <styleUrl>#icon-1739-0288D1</styleUrl>
      <ExtendedData>
        <Data name="leírás">
          <value/>
        </Data>
      </ExtendedData>
      <Point>
        <coordinates>
          19.089386,47.525353,0
        </coordinates>
      </Point>
    </Placemark>
    <Placemark>
      <name>Budapest-Nyugati</name>
      <description><![CDATA[<br><br>leírás: ]]></description>
      <styleUrl>#icon-1739-0288D1</styleUrl>
      <ExtendedData>
        <Data name="leírás">
          <value/>
        </Data>
      </ExtendedData>
      <Point>
        <coordinates>
          19.057761,47.510468,0
        </coordinates>
      </Point>
    </Placemark>
    <Placemark>
      <name>Zugló</name>
      <description><![CDATA[<br><br>leírás: ]]></description>
      <styleUrl>#icon-1739-0288D1</styleUrl>
      <ExtendedData>
        <Data name="leírás">
          <value/>
        </Data>
      </ExtendedData>
      <Point>
        <coordinates>
          19.101466,47.511256,0
        </coordinates>
      </Point>
    </Placemark>
    <Placemark>
      <name>Budapest-Keleti</name>
      <description><![CDATA[<br><br>leírás: ]]></description>
      <styleUrl>#icon-1739-0288D1</styleUrl>
      <ExtendedData>
        <Data name="leírás">
          <value/>
        </Data>
      </ExtendedData>
      <Point>
        <coordinates>
          19.083988,47.500442,0
        </coordinates>
      </Point>
    </Placemark>
    <Placemark>
      <name>Kőbánya-Kispest</name>
      <description><![CDATA[<br><br>leírás: ]]></description>
      <styleUrl>#icon-1739-0288D1</styleUrl>
      <ExtendedData>
        <Data name="leírás">
          <value/>
        </Data>
      </ExtendedData>
      <Point>
        <coordinates>
          19.149248,47.463457,0
        </coordinates>
      </Point>
    </Placemark>
    <Placemark>
      <name>Budapest-Kelenföld</name>
      <description><![CDATA[<br><br>leírás: ]]></description>
      <styleUrl>#icon-1739-0288D1</styleUrl>
      <ExtendedData>
        <Data name="leírás">
          <value/>
        </Data>
      </ExtendedData>
      <Point>
        <coordinates>
          19.021648,47.465171,0
        </coordinates>
      </Point>
    </Placemark>
    <Placemark>
      <name>Budapest-Déli</name>
      <description><![CDATA[<br><br>leírás: ]]></description>
      <styleUrl>#icon-1739-0288D1</styleUrl>
      <ExtendedData>
        <Data name="leírás">
          <value/>
        </Data>
      </ExtendedData>
      <Point>
        <coordinates>
          19.02474,47.500283,0
        </coordinates>
      </Point>
    </Placemark>
    <Placemark>
      <name>Dunakeszi alsó</name>
      <description><![CDATA[<br><br>leírás: ]]></description>
      <styleUrl>#icon-1739-0288D1</styleUrl>
      <ExtendedData>
        <Data name="leírás">
          <value/>
        </Data>
      </ExtendedData>
      <Point>
        <coordinates>
          19.128803,47.607902,0
        </coordinates>
      </Point>
    </Placemark>
    <Placemark>
      <name>Dunakeszi-Gyártelep</name>
      <description><![CDATA[<br><br>leírás: ]]></description>
      <styleUrl>#icon-1739-0288D1</styleUrl>
      <ExtendedData>
        <Data name="leírás">
          <value/>
        </Data>
      </ExtendedData>
      <Point>
        <coordinates>
          19.134836,47.643696,0
        </coordinates>
      </Point>
    </Placemark>
    <Placemark>
      <name>Dunakeszi</name>
      <description><![CDATA[<br><br>leírás: ]]></description>
      <styleUrl>#icon-1739-0288D1</styleUrl>
      <ExtendedData>
        <Data name="leírás">
          <value/>
        </Data>
      </ExtendedData>
      <Point>
        <coordinates>
          19.135931,47.625584,0
        </coordinates>
      </Point>
    </Placemark>
    <Placemark>
      <name>Alsógöd</name>
      <description><![CDATA[<br><br>leírás: ]]></description>
      <styleUrl>#icon-1739-0288D1</styleUrl>
      <ExtendedData>
        <Data name="leírás">
          <value/>
        </Data>
      </ExtendedData>
      <Point>
        <coordinates>
          19.134378,47.67706,0
        </coordinates>
      </Point>
    </Placemark>
    <Placemark>
      <name>Göd</name>
      <description><![CDATA[<br><br>leírás: ]]></description>
      <styleUrl>#icon-1739-0288D1</styleUrl>
      <ExtendedData>
        <Data name="leírás">
          <value/>
        </Data>
      </ExtendedData>
      <Point>
        <coordinates>
          19.137394,47.687874,0
        </coordinates>
      </Point>
    </Placemark>
    <Placemark>
      <name>Felsőgöd</name>
      <description><![CDATA[<br><br>leírás: ]]></description>
      <styleUrl>#icon-1739-0288D1</styleUrl>
      <ExtendedData>
        <Data name="leírás">
          <value/>
        </Data>
      </ExtendedData>
      <Point>
        <coordinates>
          19.143116,47.705554,0
        </coordinates>
      </Point>
    </Placemark>
    <Placemark>
      <name>Sződ-Sződliget</name>
      <description><![CDATA[<br><br>leírás: ]]></description>
      <styleUrl>#icon-1739-0288D1</styleUrl>
      <ExtendedData>
        <Data name="leírás">
          <value/>
        </Data>
      </ExtendedData>
      <Point>
        <coordinates>
          19.154967,47.72804,0
        </coordinates>
      </Point>
    </Placemark>
    <Placemark>
      <name>Verőce</name>
      <description><![CDATA[<br><br>leírás: ]]></description>
      <styleUrl>#icon-1739-0288D1</styleUrl>
      <ExtendedData>
        <Data name="leírás">
          <value/>
        </Data>
      </ExtendedData>
      <Point>
        <coordinates>
          19.031797,47.823704,0
        </coordinates>
      </Point>
    </Placemark>
    <Placemark>
      <name>Magyarkút-Verőce</name>
      <description><![CDATA[<br><br>leírás: ]]></description>
      <styleUrl>#icon-1739-0288D1</styleUrl>
      <ExtendedData>
        <Data name="leírás">
          <value/>
        </Data>
      </ExtendedData>
      <Point>
        <coordinates>
          19.040128,47.831149,0
        </coordinates>
      </Point>
    </Placemark>
    <Placemark>
      <name>Kismaros</name>
      <description><![CDATA[<br><br>leírás: ]]></description>
      <styleUrl>#icon-1739-0288D1</styleUrl>
      <ExtendedData>
        <Data name="leírás">
          <value/>
        </Data>
      </ExtendedData>
      <Point>
        <coordinates>
          19.010278,47.8275,0
        </coordinates>
      </Point>
    </Placemark>
    <Placemark>
      <name>Nagymaros-Visegrád</name>
      <description><![CDATA[<br><br>leírás: ]]></description>
      <styleUrl>#icon-1739-0288D1</styleUrl>
      <ExtendedData>
        <Data name="leírás">
          <value/>
        </Data>
      </ExtendedData>
      <Point>
        <coordinates>
          18.959166,47.79136,0
        </coordinates>
      </Point>
    </Placemark>
    <Placemark>
      <name>Nagymaros</name>
      <description><![CDATA[<br><br>leírás: ]]></description>
      <styleUrl>#icon-1739-0288D1</styleUrl>
      <ExtendedData>
        <Data name="leírás">
          <value/>
        </Data>
      </ExtendedData>
      <Point>
        <coordinates>
          18.952097,47.780562,0
        </coordinates>
      </Point>
    </Placemark>
    <Placemark>
      <name>Zebegény</name>
      <description><![CDATA[<br><br>leírás: ]]></description>
      <styleUrl>#icon-1739-0288D1</styleUrl>
      <ExtendedData>
        <Data name="leírás">
          <value/>
        </Data>
      </ExtendedData>
      <Point>
        <coordinates>
          18.908889,47.801389,0
        </coordinates>
      </Point>
    </Placemark>
    <Placemark>
      <name>Szob</name>
      <description><![CDATA[<br><br>leírás: ]]></description>
      <styleUrl>#icon-1739-0288D1</styleUrl>
      <ExtendedData>
        <Data name="leírás">
          <value/>
        </Data>
      </ExtendedData>
      <Point>
        <coordinates>
          18.861727,47.821156,0
        </coordinates>
      </Point>
    </Placemark>
    <Placemark>
      <name>Bratislava Hlavna</name>
      <description><![CDATA[<br><br>leírás: ]]></description>
      <styleUrl>#icon-1739-0288D1</styleUrl>
      <ExtendedData>
        <Data name="leírás">
          <value/>
        </Data>
      </ExtendedData>
      <Point>
        <coordinates>
          17.106206,48.158678,0
        </coordinates>
      </Point>
    </Placemark>
    <Placemark>
      <name>Poprad-Tatry</name>
      <description><![CDATA[<br><br>leírás: ]]></description>
      <styleUrl>#icon-1739-0288D1</styleUrl>
      <ExtendedData>
        <Data name="leírás">
          <value/>
        </Data>
      </ExtendedData>
      <Point>
        <coordinates>
          20.295145,49.059724,0
        </coordinates>
      </Point>
    </Placemark>
    <Placemark>
      <name>Košice</name>
      <description><![CDATA[<br><br>leírás: ]]></description>
      <styleUrl>#icon-1739-0288D1</styleUrl>
      <ExtendedData>
        <Data name="leírás">
          <value/>
        </Data>
      </ExtendedData>
      <Point>
        <coordinates>
          21.267779,48.72268,0
        </coordinates>
      </Point>
    </Placemark>
    <Placemark>
      <name>Prágai Főpályaudvar</name>
      <description><![CDATA[<br><br>leírás: ]]></description>
      <styleUrl>#icon-1739-0288D1</styleUrl>
      <ExtendedData>
        <Data name="leírás">
          <value/>
        </Data>
      </ExtendedData>
      <Point>
        <coordinates>
          14.435306,50.083209,0
        </coordinates>
      </Point>
    </Placemark>
    <Placemark>
      <name>Prague Holesovice Train Station</name>
      <description><![CDATA[<br><br>leírás: ]]></description>
      <styleUrl>#icon-1739-0288D1</styleUrl>
      <ExtendedData>
        <Data name="leírás">
          <value/>
        </Data>
      </ExtendedData>
      <Point>
        <coordinates>
          14.43971,50.110321,0
        </coordinates>
      </Point>
    </Placemark>
    <Placemark>
      <name>Wien Hbf</name>
      <description><![CDATA[<br><br>leírás: ]]></description>
      <styleUrl>#icon-1739-0288D1</styleUrl>
      <ExtendedData>
        <Data name="leírás">
          <value/>
        </Data>
      </ExtendedData>
      <Point>
        <coordinates>
          16.377855,48.18501,0
        </coordinates>
      </Point>
    </Placemark>
    <Placemark>
      <name>Salzburg</name>
      <description><![CDATA[<br><br>leírás: ]]></description>
      <styleUrl>#icon-1739-0288D1</styleUrl>
      <ExtendedData>
        <Data name="leírás">
          <value/>
        </Data>
      </ExtendedData>
      <Point>
        <coordinates>
          13.045071,47.81307,0
        </coordinates>
      </Point>
    </Placemark>
    <Placemark>
      <name>Venezia Santa Lucia</name>
      <description><![CDATA[<br><br>leírás: ]]></description>
      <styleUrl>#icon-1739-0288D1</styleUrl>
      <ExtendedData>
        <Data name="leírás">
          <value/>
        </Data>
      </ExtendedData>
      <Point>
        <coordinates>
          12.321044,45.44107,0
        </coordinates>
      </Point>
    </Placemark>
    <Placemark>
      <name>Bologna Centrale</name>
      <description><![CDATA[<br><br>leírás: ]]></description>
      <styleUrl>#icon-1739-0288D1</styleUrl>
      <ExtendedData>
        <Data name="leírás">
          <value/>
        </Data>
      </ExtendedData>
      <Point>
        <coordinates>
          11.343369,44.505907,0
        </coordinates>
      </Point>
    </Placemark>
    <Placemark>
      <name>Roma Termini</name>
      <description><![CDATA[<br><br>leírás: ]]></description>
      <styleUrl>#icon-1739-0288D1</styleUrl>
      <ExtendedData>
        <Data name="leírás">
          <value/>
        </Data>
      </ExtendedData>
      <Point>
        <coordinates>
          12.501576,41.901287,0
        </coordinates>
      </Point>
    </Placemark>
    <Placemark>
      <name>Brussels Airport - Zaventem</name>
      <description><![CDATA[<br><br>leírás: ]]></description>
      <styleUrl>#icon-1739-0288D1</styleUrl>
      <ExtendedData>
        <Data name="leírás">
          <value/>
        </Data>
      </ExtendedData>
      <Point>
        <coordinates>
          4.482072,50.89646,0
        </coordinates>
      </Point>
    </Placemark>
    <Placemark>
      <name>Brussel-Centraal</name>
      <description><![CDATA[<br><br>leírás: ]]></description>
      <styleUrl>#icon-1739-0288D1</styleUrl>
      <ExtendedData>
        <Data name="leírás">
          <value/>
        </Data>
      </ExtendedData>
      <Point>
        <coordinates>
          4.357096,50.845504,0
        </coordinates>
      </Point>
    </Placemark>
    <Placemark>
      <name>Gent-Sint-Pieters</name>
      <description><![CDATA[<br><br>leírás: ]]></description>
      <styleUrl>#icon-1739-0288D1</styleUrl>
      <ExtendedData>
        <Data name="leírás">
          <value/>
        </Data>
      </ExtendedData>
      <Point>
        <coordinates>
          3.710839,51.036113,0
        </coordinates>
      </Point>
    </Placemark>
    <Placemark>
      <name>Brugge</name>
      <description><![CDATA[<br><br>leírás: ]]></description>
      <styleUrl>#icon-1739-0288D1</styleUrl>
      <ExtendedData>
        <Data name="leírás">
          <value/>
        </Data>
      </ExtendedData>
      <Point>
        <coordinates>
          3.217851,51.197666,0
        </coordinates>
      </Point>
    </Placemark>
    <Placemark>
      <name>Blankenberge</name>
      <description><![CDATA[<br><br>leírás: ]]></description>
      <styleUrl>#icon-1739-0288D1</styleUrl>
      <ExtendedData>
        <Data name="leírás">
          <value/>
        </Data>
      </ExtendedData>
      <Point>
        <coordinates>
          3.133666,51.312581,0
        </coordinates>
      </Point>
    </Placemark>
    <Placemark>
      <name>Oostende</name>
      <description><![CDATA[<br><br>leírás: ]]></description>
      <styleUrl>#icon-1739-0288D1</styleUrl>
      <ExtendedData>
        <Data name="leírás">
          <value/>
        </Data>
      </ExtendedData>
      <Point>
        <coordinates>
          2.925878,51.229303,0
        </coordinates>
      </Point>
    </Placemark>
    <Placemark>
      <name>Nógrád</name>
      <description><![CDATA[<br><br>leírás: ]]></description>
      <styleUrl>#icon-1739-0288D1</styleUrl>
      <ExtendedData>
        <Data name="leírás">
          <value/>
        </Data>
      </ExtendedData>
      <Point>
        <coordinates>
          19.0475,47.901944,0
        </coordinates>
      </Point>
    </Placemark>
    <Placemark>
      <name>Szokolya</name>
      <description><![CDATA[<br><br>leírás: ]]></description>
      <styleUrl>#icon-1739-0288D1</styleUrl>
      <ExtendedData>
        <Data name="leírás">
          <value/>
        </Data>
      </ExtendedData>
      <Point>
        <coordinates>
          19.030556,47.871111,0
        </coordinates>
      </Point>
    </Placemark>
    <Placemark>
      <name>Aszód</name>
      <description><![CDATA[<br><br>leírás: ]]></description>
      <styleUrl>#icon-1739-0288D1</styleUrl>
      <ExtendedData>
        <Data name="leírás">
          <value/>
        </Data>
      </ExtendedData>
      <Point>
        <coordinates>
          19.492699,47.647916,0
        </coordinates>
      </Point>
    </Placemark>
    <Placemark>
      <name>Velence</name>
      <description><![CDATA[<br><br>leírás: ]]></description>
      <styleUrl>#icon-1739-0288D1</styleUrl>
      <ExtendedData>
        <Data name="leírás">
          <value/>
        </Data>
      </ExtendedData>
      <Point>
        <coordinates>
          18.663794,47.226883,0
        </coordinates>
      </Point>
    </Placemark>
    <Placemark>
      <name>Székesfehérvár</name>
      <description><![CDATA[<br><br>leírás: ]]></description>
      <styleUrl>#icon-1739-0288D1</styleUrl>
      <ExtendedData>
        <Data name="leírás">
          <value/>
        </Data>
      </ExtendedData>
      <Point>
        <coordinates>
          18.424725,47.183482,0
        </coordinates>
      </Point>
    </Placemark>
    <Placemark>
      <name>Alsóörs</name>
      <description><![CDATA[<br><br>leírás: ]]></description>
      <styleUrl>#icon-1739-0288D1</styleUrl>
      <ExtendedData>
        <Data name="leírás">
          <value/>
        </Data>
      </ExtendedData>
      <Point>
        <coordinates>
          17.974722,46.985278,0
        </coordinates>
      </Point>
    </Placemark>
    <Placemark>
      <name>Balatonfüred</name>
      <description><![CDATA[<br><br>leírás: ]]></description>
      <styleUrl>#icon-1739-0288D1</styleUrl>
      <ExtendedData>
        <Data name="leírás">
          <value/>
        </Data>
      </ExtendedData>
      <Point>
        <coordinates>
          17.883056,46.955833,0
        </coordinates>
      </Point>
    </Placemark>
    <Placemark>
      <name>Aszófő</name>
      <description><![CDATA[<br><br>leírás: ]]></description>
      <styleUrl>#icon-1739-0288D1</styleUrl>
      <ExtendedData>
        <Data name="leírás">
          <value/>
        </Data>
      </ExtendedData>
      <Point>
        <coordinates>
          17.8325,46.925556,0
        </coordinates>
      </Point>
    </Placemark>
    <Placemark>
      <name>Badacsonytomaj</name>
      <description><![CDATA[<br><br>leírás: ]]></description>
      <styleUrl>#icon-1739-0288D1</styleUrl>
      <ExtendedData>
        <Data name="leírás">
          <value/>
        </Data>
      </ExtendedData>
      <Point>
        <coordinates>
          17.518056,46.804722,0
        </coordinates>
      </Point>
    </Placemark>
    <Placemark>
      <name>Balatonszárszó</name>
      <description><![CDATA[<br><br>leírás: ]]></description>
      <styleUrl>#icon-1739-0288D1</styleUrl>
      <ExtendedData>
        <Data name="leírás">
          <value/>
        </Data>
      </ExtendedData>
      <Point>
        <coordinates>
          17.830278,46.832222,0
        </coordinates>
      </Point>
    </Placemark>
    <Placemark>
      <name>Tatabánya</name>
      <description><![CDATA[<br><br>leírás: ]]></description>
      <styleUrl>#icon-1739-0288D1</styleUrl>
      <ExtendedData>
        <Data name="leírás">
          <value/>
        </Data>
      </ExtendedData>
      <Point>
        <coordinates>
          18.392988,47.585391,0
        </coordinates>
      </Point>
    </Placemark>
    <Placemark>
      <name>Vértesszőlős</name>
      <description><![CDATA[<br><br>leírás: ]]></description>
      <styleUrl>#icon-1739-0288D1</styleUrl>
      <ExtendedData>
        <Data name="leírás">
          <value/>
        </Data>
      </ExtendedData>
      <Point>
        <coordinates>
          18.375278,47.619444,0
        </coordinates>
      </Point>
    </Placemark>
    <Placemark>
      <name>Tata</name>
      <description><![CDATA[<br><br>leírás: ]]></description>
      <styleUrl>#icon-1739-0288D1</styleUrl>
      <ExtendedData>
        <Data name="leírás">
          <value/>
        </Data>
      </ExtendedData>
      <Point>
        <coordinates>
          18.327074,47.665038,0
        </coordinates>
      </Point>
    </Placemark>
    <Placemark>
      <name>Győr</name>
      <description><![CDATA[<br><br>leírás: ]]></description>
      <styleUrl>#icon-1739-0288D1</styleUrl>
      <ExtendedData>
        <Data name="leírás">
          <value/>
        </Data>
      </ExtendedData>
      <Point>
        <coordinates>
          17.63444,47.682213,0
        </coordinates>
      </Point>
    </Placemark>
    <Placemark>
      <name>Győrszabadhegy</name>
      <description><![CDATA[<br><br>leírás: ]]></description>
      <styleUrl>#icon-1739-0288D1</styleUrl>
      <ExtendedData>
        <Data name="leírás">
          <value/>
        </Data>
      </ExtendedData>
      <Point>
        <coordinates>
          17.648056,47.663056,0
        </coordinates>
      </Point>
    </Placemark>
    <Placemark>
      <name>Pápa</name>
      <description><![CDATA[<br><br>leírás: ]]></description>
      <styleUrl>#icon-1739-0288D1</styleUrl>
      <ExtendedData>
        <Data name="leírás">
          <value/>
        </Data>
      </ExtendedData>
      <Point>
        <coordinates>
          17.458889,47.340556,0
        </coordinates>
      </Point>
    </Placemark>
    <Placemark>
      <name>Nyúl</name>
      <description><![CDATA[<br><br>leírás: ]]></description>
      <styleUrl>#icon-1739-0288D1</styleUrl>
      <ExtendedData>
        <Data name="leírás">
          <value/>
        </Data>
      </ExtendedData>
      <Point>
        <coordinates>
          17.698056,47.587778,0
        </coordinates>
      </Point>
    </Placemark>
    <Placemark>
      <name>Pannonhalma</name>
      <description><![CDATA[<br><br>leírás: ]]></description>
      <styleUrl>#icon-1739-0288D1</styleUrl>
      <ExtendedData>
        <Data name="leírás">
          <value/>
        </Data>
      </ExtendedData>
      <Point>
        <coordinates>
          17.740833,47.547778,0
        </coordinates>
      </Point>
    </Placemark>
    <Placemark>
      <name>Vinye</name>
      <description><![CDATA[<br><br>leírás: ]]></description>
      <styleUrl>#icon-1739-0288D1</styleUrl>
      <ExtendedData>
        <Data name="leírás">
          <value/>
        </Data>
      </ExtendedData>
      <Point>
        <coordinates>
          17.819654,47.360358,0
        </coordinates>
      </Point>
    </Placemark>
    <Placemark>
      <name>Porva-Csesznek</name>
      <description><![CDATA[<br><br>leírás: ]]></description>
      <styleUrl>#icon-1739-0288D1</styleUrl>
      <ExtendedData>
        <Data name="leírás">
          <value/>
        </Data>
      </ExtendedData>
      <Point>
        <coordinates>
          17.841111,47.326944,0
        </coordinates>
      </Point>
    </Placemark>
    <Placemark>
      <name>Zirc</name>
      <description><![CDATA[<br><br>leírás: ]]></description>
      <styleUrl>#icon-1739-0288D1</styleUrl>
      <ExtendedData>
        <Data name="leírás">
          <value/>
        </Data>
      </ExtendedData>
      <Point>
        <coordinates>
          17.878056,47.266667,0
        </coordinates>
      </Point>
    </Placemark>
    <Placemark>
      <name>Veszprém</name>
      <description><![CDATA[<br><br>leírás: ]]></description>
      <styleUrl>#icon-1739-0288D1</styleUrl>
      <ExtendedData>
        <Data name="leírás">
          <value/>
        </Data>
      </ExtendedData>
      <Point>
        <coordinates>
          17.91,47.118889,0
        </coordinates>
      </Point>
    </Placemark>
    <Placemark>
      <name>Sopron</name>
      <description><![CDATA[<br><br>leírás: ]]></description>
      <styleUrl>#icon-1739-0288D1</styleUrl>
      <ExtendedData>
        <Data name="leírás">
          <value/>
        </Data>
      </ExtendedData>
      <Point>
        <coordinates>
          16.58673,47.677904,0
        </coordinates>
      </Point>
    </Placemark>
    <Placemark>
      <name>Eger</name>
      <description><![CDATA[<br><br>leírás: ]]></description>
      <styleUrl>#icon-1739-0288D1</styleUrl>
      <ExtendedData>
        <Data name="leírás">
          <value/>
        </Data>
      </ExtendedData>
      <Point>
        <coordinates>
          20.381499,47.891711,0
        </coordinates>
      </Point>
    </Placemark>
    <Placemark>
      <name>Füzesabony</name>
      <description><![CDATA[<br><br>leírás: ]]></description>
      <styleUrl>#icon-1739-0288D1</styleUrl>
      <ExtendedData>
        <Data name="leírás">
          <value/>
        </Data>
      </ExtendedData>
      <Point>
        <coordinates>
          20.415278,47.751389,0
        </coordinates>
      </Point>
    </Placemark>
    <Placemark>
      <name>Miskolc-Tiszai</name>
      <description><![CDATA[<br><br>leírás: ]]></description>
      <styleUrl>#icon-1739-0288D1</styleUrl>
      <ExtendedData>
        <Data name="leírás">
          <value/>
        </Data>
      </ExtendedData>
      <Point>
        <coordinates>
          20.812286,48.09917,0
        </coordinates>
      </Point>
    </Placemark>
    <Placemark>
      <name>Hatvan</name>
      <description><![CDATA[<br><br>leírás: ]]></description>
      <styleUrl>#icon-1739-0288D1</styleUrl>
      <ExtendedData>
        <Data name="leírás">
          <value/>
        </Data>
      </ExtendedData>
      <Point>
        <coordinates>
          19.671389,47.663611,0
        </coordinates>
      </Point>
    </Placemark>
    <Placemark>
      <name>Ferihegy</name>
      <description><![CDATA[<br><br>leírás: ]]></description>
      <styleUrl>#icon-1739-0288D1</styleUrl>
      <ExtendedData>
        <Data name="leírás">
          <value/>
        </Data>
      </ExtendedData>
      <Point>
        <coordinates>
          19.223865,47.437114,0
        </coordinates>
      </Point>
    </Placemark>
    <Placemark>
      <name>Üllő</name>
      <description><![CDATA[<br><br>leírás: ]]></description>
      <styleUrl>#icon-1739-0288D1</styleUrl>
      <ExtendedData>
        <Data name="leírás">
          <value/>
        </Data>
      </ExtendedData>
      <Point>
        <coordinates>
          19.348778,47.390728,0
        </coordinates>
      </Point>
    </Placemark>
    <Placemark>
      <name>Kiskőrös</name>
      <description><![CDATA[<br><br>leírás: ]]></description>
      <styleUrl>#icon-1739-0288D1</styleUrl>
      <ExtendedData>
        <Data name="leírás">
          <value/>
        </Data>
      </ExtendedData>
      <Point>
        <coordinates>
          19.297047,46.626034,0
        </coordinates>
      </Point>
    </Placemark>
    <Placemark>
      <name>Heves</name>
      <description><![CDATA[<br><br>leírás: ]]></description>
      <styleUrl>#icon-1739-0288D1</styleUrl>
      <ExtendedData>
        <Data name="leírás">
          <value/>
        </Data>
      </ExtendedData>
      <Point>
        <coordinates>
          20.306111,47.609444,0
        </coordinates>
      </Point>
    </Placemark>
    <Placemark>
      <name>Kál-Kápolna</name>
      <description><![CDATA[<br><br>leírás: ]]></description>
      <styleUrl>#icon-1739-0288D1</styleUrl>
      <ExtendedData>
        <Data name="leírás">
          <value/>
        </Data>
      </ExtendedData>
      <Point>
        <coordinates>
          20.254167,47.734167,0
        </coordinates>
      </Point>
    </Placemark>
    <Placemark>
      <name>Balatonalmádi</name>
      <description><![CDATA[<br><br>leírás: ]]></description>
      <styleUrl>#icon-1739-0288D1</styleUrl>
      <ExtendedData>
        <Data name="leírás">
          <value/>
        </Data>
      </ExtendedData>
      <Point>
        <coordinates>
          18.015,47.028333,0
        </coordinates>
      </Point>
    </Placemark>
    <Placemark>
      <name>Villánykövesd</name>
      <description><![CDATA[<br><br>leírás: ]]></description>
      <styleUrl>#icon-1739-0288D1</styleUrl>
      <ExtendedData>
        <Data name="leírás">
          <value/>
        </Data>
      </ExtendedData>
      <Point>
        <coordinates>
          18.425833,45.879722,0
        </coordinates>
      </Point>
    </Placemark>
    <Placemark>
      <name>Palkonya</name>
      <description><![CDATA[<br><br>leírás: ]]></description>
      <styleUrl>#icon-1739-0288D1</styleUrl>
      <ExtendedData>
        <Data name="leírás">
          <value/>
        </Data>
      </ExtendedData>
      <Point>
        <coordinates>
          18.393889,45.891667,0
        </coordinates>
      </Point>
    </Placemark>
    <Placemark>
      <name>Perkupa</name>
      <description><![CDATA[<br><br>leírás: ]]></description>
      <styleUrl>#icon-1739-0288D1</styleUrl>
      <ExtendedData>
        <Data name="leírás">
          <value/>
        </Data>
      </ExtendedData>
      <Point>
        <coordinates>
          20.691111,48.471389,0
        </coordinates>
      </Point>
    </Placemark>
    <Placemark>
      <name>Tornanádaska</name>
      <description><![CDATA[<br><br>leírás: ]]></description>
      <styleUrl>#icon-1739-0288D1</styleUrl>
      <ExtendedData>
        <Data name="leírás">
          <value/>
        </Data>
      </ExtendedData>
      <Point>
        <coordinates>
          20.787222,48.558333,0
        </coordinates>
      </Point>
    </Placemark>
    <Placemark>
      <name>Csorvás</name>
      <description><![CDATA[<br><br>leírás: ]]></description>
      <styleUrl>#icon-1739-0288D1</styleUrl>
      <ExtendedData>
        <Data name="leírás">
          <value/>
        </Data>
      </ExtendedData>
      <Point>
        <coordinates>
          20.840833,46.623611,0
        </coordinates>
      </Point>
    </Placemark>
    <Placemark>
      <name>Békéscsaba</name>
      <description><![CDATA[<br><br>leírás: ]]></description>
      <styleUrl>#icon-1739-0288D1</styleUrl>
      <ExtendedData>
        <Data name="leírás">
          <value/>
        </Data>
      </ExtendedData>
      <Point>
        <coordinates>
          21.081542,46.670041,0
        </coordinates>
      </Point>
    </Placemark>
    <Placemark>
      <name>Vámosgyörk</name>
      <description><![CDATA[<br><br>leírás: ]]></description>
      <styleUrl>#icon-1739-0288D1</styleUrl>
      <ExtendedData>
        <Data name="leírás">
          <value/>
        </Data>
      </ExtendedData>
      <Point>
        <coordinates>
          19.92801,47.68581,0
        </coordinates>
      </Point>
    </Placemark>
    <Placemark>
      <name>Jászapáti</name>
      <description><![CDATA[<br><br>leírás: ]]></description>
      <styleUrl>#icon-1739-0288D1</styleUrl>
      <ExtendedData>
        <Data name="leírás">
          <value/>
        </Data>
      </ExtendedData>
      <Point>
        <coordinates>
          20.155,47.513611,0
        </coordinates>
      </Point>
    </Placemark>
    <Placemark>
      <name>Kisnémedi</name>
      <description><![CDATA[<br><br>leírás: ]]></description>
      <styleUrl>#icon-1739-0288D1</styleUrl>
      <ExtendedData>
        <Data name="leírás">
          <value/>
        </Data>
      </ExtendedData>
      <Point>
        <coordinates>
          19.264797,47.724401,0
        </coordinates>
      </Point>
    </Placemark>
    <Placemark>
      <name>Váckisújfalu</name>
      <description><![CDATA[<br><br>leírás: ]]></description>
      <styleUrl>#icon-1739-0288D1</styleUrl>
      <ExtendedData>
        <Data name="leírás">
          <value/>
        </Data>
      </ExtendedData>
      <Point>
        <coordinates>
          19.340278,47.705,0
        </coordinates>
      </Point>
    </Placemark>
    <Placemark>
      <name>Őrbottyán</name>
      <description><![CDATA[<br><br>leírás: ]]></description>
      <styleUrl>#icon-1739-0288D1</styleUrl>
      <ExtendedData>
        <Data name="leírás">
          <value/>
        </Data>
      </ExtendedData>
      <Point>
        <coordinates>
          19.283792,47.685573,0
        </coordinates>
      </Point>
    </Placemark>
    <Placemark>
      <name>Dorog</name>
      <description><![CDATA[<br><br>leírás: ]]></description>
      <styleUrl>#icon-1739-0288D1</styleUrl>
      <ExtendedData>
        <Data name="leírás">
          <value/>
        </Data>
      </ExtendedData>
      <Point>
        <coordinates>
          18.732686,47.723378,0
        </coordinates>
      </Point>
    </Placemark>
    <Placemark>
      <name>Split</name>
      <description><![CDATA[<br><br>leírás: ]]></description>
      <styleUrl>#icon-1739-0288D1</styleUrl>
      <ExtendedData>
        <Data name="leírás">
          <value/>
        </Data>
      </ExtendedData>
      <Point>
        <coordinates>
          16.442958,43.50473,0
        </coordinates>
      </Point>
    </Placemark>
    <Placemark>
      <name>Veszprémvarsány</name>
      <description><![CDATA[<br><br>leírás: ]]></description>
      <styleUrl>#icon-1739-0288D1</styleUrl>
      <ExtendedData>
        <Data name="leírás">
          <value/>
        </Data>
      </ExtendedData>
      <Point>
        <coordinates>
          17.818333,47.443333,0
        </coordinates>
      </Point>
    </Placemark>
    <Placemark>
      <name>Bakonyszentlászló</name>
      <description><![CDATA[<br><br>leírás: ]]></description>
      <styleUrl>#icon-1739-0288D1</styleUrl>
      <ExtendedData>
        <Data name="leírás">
          <value/>
        </Data>
      </ExtendedData>
      <Point>
        <coordinates>
          17.8175,47.395556,0
        </coordinates>
      </Point>
    </Placemark>
    <Placemark>
      <name>Orvieto</name>
      <description><![CDATA[<br><br>leírás: ]]></description>
      <styleUrl>#icon-1739-0288D1</styleUrl>
      <ExtendedData>
        <Data name="leírás">
          <value/>
        </Data>
      </ExtendedData>
      <Point>
        <coordinates>
          12.126565,42.723847,0
        </coordinates>
      </Point>
    </Placemark>
    <Placemark>
      <name>Orte</name>
      <description><![CDATA[<br><br>leírás: ]]></description>
      <styleUrl>#icon-1739-0288D1</styleUrl>
      <ExtendedData>
        <Data name="leírás">
          <value/>
        </Data>
      </ExtendedData>
      <Point>
        <coordinates>
          12.408683,42.437493,0
        </coordinates>
      </Point>
    </Placemark>
    <Placemark>
      <name>Roma Tiburtina</name>
      <description><![CDATA[<br><br>leírás: ]]></description>
      <styleUrl>#icon-1739-0288D1</styleUrl>
      <ExtendedData>
        <Data name="leírás">
          <value/>
        </Data>
      </ExtendedData>
      <Point>
        <coordinates>
          12.530866,41.910819,0
        </coordinates>
      </Point>
    </Placemark>
    <Placemark>
      <name>Fiumicino Aeroporto</name>
      <description><![CDATA[<br><br>leírás: ]]></description>
      <styleUrl>#icon-1739-0288D1</styleUrl>
      <ExtendedData>
        <Data name="leírás">
          <value/>
        </Data>
      </ExtendedData>
      <Point>
        <coordinates>
          12.251668,41.793672,0
        </coordinates>
      </Point>
    </Placemark>
    <Placemark>
      <name>Magyarkút</name>
      <description><![CDATA[<br><br>leírás: ]]></description>
      <styleUrl>#icon-1739-0288D1</styleUrl>
      <ExtendedData>
        <Data name="leírás">
          <value/>
        </Data>
      </ExtendedData>
      <Point>
        <coordinates>
          19.045314,47.850361,0
        </coordinates>
      </Point>
    </Placemark>
    <Placemark>
      <name>Fenyveshegy</name>
      <description><![CDATA[<br><br>leírás: ]]></description>
      <styleUrl>#icon-1739-0288D1</styleUrl>
      <ExtendedData>
        <Data name="leírás">
          <value/>
        </Data>
      </ExtendedData>
      <Point>
        <coordinates>
          19.068056,47.818333,0
        </coordinates>
      </Point>
    </Placemark>
    <Placemark>
      <name>Drégelyvár</name>
      <description><![CDATA[<br><br>leírás: ]]></description>
      <styleUrl>#icon-1739-0288D1</styleUrl>
      <ExtendedData>
        <Data name="leírás">
          <value/>
        </Data>
      </ExtendedData>
      <Point>
        <coordinates>
          19.079444,48.001944,0
        </coordinates>
      </Point>
    </Placemark>
    <Placemark>
      <name>Sáferkút</name>
      <description><![CDATA[<br><br>leírás: ]]></description>
      <styleUrl>#icon-1739-0288D1</styleUrl>
      <ExtendedData>
        <Data name="leírás">
          <value/>
        </Data>
      </ExtendedData>
      <Point>
        <coordinates>
          19.044134,48.028853,0
        </coordinates>
      </Point>
    </Placemark>
    <Placemark>
      <name>Diósjenő</name>
      <description><![CDATA[<br><br>leírás: ]]></description>
      <styleUrl>#icon-1739-0288D1</styleUrl>
      <ExtendedData>
        <Data name="leírás">
          <value/>
        </Data>
      </ExtendedData>
      <Point>
        <coordinates>
          19.049444,47.94,0
        </coordinates>
      </Point>
    </Placemark>
    <Placemark>
      <name>Brassó</name>
      <description><![CDATA[<br><br>leírás: ]]></description>
      <styleUrl>#icon-1739-0288D1</styleUrl>
      <ExtendedData>
        <Data name="leírás">
          <value/>
        </Data>
      </ExtendedData>
      <Point>
        <coordinates>
          25.613602,45.661229,0
        </coordinates>
      </Point>
    </Placemark>
    <Placemark>
      <name>Bregenz</name>
      <description><![CDATA[<br><br>leírás: ]]></description>
      <styleUrl>#icon-1739-0288D1</styleUrl>
      <ExtendedData>
        <Data name="leírás">
          <value/>
        </Data>
      </ExtendedData>
      <Point>
        <coordinates>
          9.739899,47.502993,0
        </coordinates>
      </Point>
    </Placemark>
    <Placemark>
      <name>Lindau-Insel</name>
      <description><![CDATA[<br><br>leírás: ]]></description>
      <styleUrl>#icon-1739-0288D1</styleUrl>
      <ExtendedData>
        <Data name="leírás">
          <value/>
        </Data>
      </ExtendedData>
      <Point>
        <coordinates>
          9.681285,47.544199,0
        </coordinates>
      </Point>
    </Placemark>
    <Placemark>
      <name>Széchenyi-hegy</name>
      <description><![CDATA[<br><br>leírás: ]]></description>
      <styleUrl>#icon-1739-0288D1</styleUrl>
      <ExtendedData>
        <Data name="leírás">
          <value/>
        </Data>
      </ExtendedData>
      <Point>
        <coordinates>
          18.979733,47.49518,0
        </coordinates>
      </Point>
    </Placemark>
    <Placemark>
      <name>Városmajor</name>
      <description><![CDATA[<br><br>leírás: ]]></description>
      <styleUrl>#icon-1739-0288D1</styleUrl>
      <ExtendedData>
        <Data name="leírás">
          <value/>
        </Data>
      </ExtendedData>
      <Point>
        <coordinates>
          19.012717,47.509432,0
        </coordinates>
      </Point>
    </Placemark>
    <Placemark>
      <name>York Street Train Station</name>
      <description><![CDATA[<br><br>leírás: ]]></description>
      <styleUrl>#icon-1739-0288D1</styleUrl>
      <ExtendedData>
        <Data name="leírás">
          <value/>
        </Data>
      </ExtendedData>
      <Point>
        <coordinates>
          -5.922217,54.610504,0
        </coordinates>
      </Point>
    </Placemark>
    <Placemark>
      <name>Coleraine</name>
      <description><![CDATA[<br><br>leírás: ]]></description>
      <styleUrl>#icon-1739-0288D1</styleUrl>
      <ExtendedData>
        <Data name="leírás">
          <value/>
        </Data>
      </ExtendedData>
      <Point>
        <coordinates>
          -6.663005,55.134112,0
        </coordinates>
      </Point>
    </Placemark>
    <Placemark>
      <name>Portrush</name>
      <description><![CDATA[<br><br>leírás: ]]></description>
      <styleUrl>#icon-1739-0288D1</styleUrl>
      <ExtendedData>
        <Data name="leírás">
          <value/>
        </Data>
      </ExtendedData>
      <Point>
        <coordinates>
          -6.653048,55.203436,0
        </coordinates>
      </Point>
    </Placemark>
    <Placemark>
      <name>Belfast Grand Central Station</name>
      <description><![CDATA[<br><br>leírás: ]]></description>
      <styleUrl>#icon-1739-0288D1</styleUrl>
      <ExtendedData>
        <Data name="leírás">
          <value/>
        </Data>
      </ExtendedData>
      <Point>
        <coordinates>
          -5.940113,54.594782,0
        </coordinates>
      </Point>
    </Placemark>
    <Placemark>
      <name>Dublin Connolly</name>
      <description><![CDATA[<br><br>leírás: ]]></description>
      <styleUrl>#icon-1739-0288D1</styleUrl>
      <ExtendedData>
        <Data name="leírás">
          <value/>
        </Data>
      </ExtendedData>
      <Point>
        <coordinates>
          -6.247181,53.352489,0
        </coordinates>
      </Point>
    </Placemark>
    <Placemark>
      <name>Kiskunfélegyháza</name>
      <description><![CDATA[<br><br>leírás: ]]></description>
      <styleUrl>#icon-1739-0288D1</styleUrl>
      <ExtendedData>
        <Data name="leírás">
          <value/>
        </Data>
      </ExtendedData>
      <Point>
        <coordinates>
          19.834692,46.707067,0
        </coordinates>
      </Point>
    </Placemark>
    <Placemark>
      <name>Biatorbágy</name>
      <description><![CDATA[<br><br>leírás: ]]></description>
      <styleUrl>#icon-1739-0288D1</styleUrl>
      <ExtendedData>
        <Data name="leírás">
          <value/>
        </Data>
      </ExtendedData>
      <Point>
        <coordinates>
          18.83431,47.479923,0
        </coordinates>
      </Point>
    </Placemark>
    <Placemark>
      <name>Galgamácsa</name>
      <description><![CDATA[<br><br>leírás: ]]></description>
      <styleUrl>#icon-1739-0288D1</styleUrl>
      <ExtendedData>
        <Data name="leírás">
          <value/>
        </Data>
      </ExtendedData>
      <Point>
        <coordinates>
          19.3925,47.693889,0
        </coordinates>
      </Point>
    </Placemark>
    <Placemark>
      <name>Schiphol Airport</name>
      <description><![CDATA[<br><br>leírás: ]]></description>
      <styleUrl>#icon-1739-0288D1</styleUrl>
      <ExtendedData>
        <Data name="leírás">
          <value/>
        </Data>
      </ExtendedData>
      <Point>
        <coordinates>
          4.76228,52.30946,0
        </coordinates>
      </Point>
    </Placemark>
    <Placemark>
      <name>Amsterdam Sloterdijk</name>
      <description><![CDATA[<br><br>leírás: ]]></description>
      <styleUrl>#icon-1739-0288D1</styleUrl>
      <ExtendedData>
        <Data name="leírás">
          <value/>
        </Data>
      </ExtendedData>
      <Point>
        <coordinates>
          4.838294,52.389033,0
        </coordinates>
      </Point>
    </Placemark>
    <Placemark>
      <name>Amsterdam Centraal</name>
      <description><![CDATA[<br><br>leírás: ]]></description>
      <styleUrl>#icon-1739-0288D1</styleUrl>
      <ExtendedData>
        <Data name="leírás">
          <value/>
        </Data>
      </ExtendedData>
      <Point>
        <coordinates>
          4.900272,52.379128,0
        </coordinates>
      </Point>
    </Placemark>
    <Placemark>
      <name>Szárliget</name>
      <description><![CDATA[<br><br>leírás: ]]></description>
      <styleUrl>#icon-1739-0288D1</styleUrl>
      <ExtendedData>
        <Data name="leírás">
          <value/>
        </Data>
      </ExtendedData>
      <Point>
        <coordinates>
          18.4958333,47.5183333,0
        </coordinates>
      </Point>
    </Placemark>
    <Placemark>
      <name>Oroszlány</name>
      <description><![CDATA[<br><br>leírás: ]]></description>
      <styleUrl>#icon-1739-0288D1</styleUrl>
      <ExtendedData>
        <Data name="leírás">
          <value/>
        </Data>
      </ExtendedData>
      <Point>
        <coordinates>
          18.3086111,47.4869444,0
        </coordinates>
      </Point>
    </Placemark>
    <Placemark>
      <name>Warszawa Lotnisko Chopina</name>
      <description><![CDATA[Warszawa Lotnisko Chopina<br><br>leírás: ]]></description>
      <styleUrl>#icon-1739-0288D1</styleUrl>
      <ExtendedData>
        <Data name="leírás">
          <value/>
        </Data>
      </ExtendedData>
      <Point>
        <coordinates>
          20.9730659,52.1698005,0
        </coordinates>
      </Point>
    </Placemark>
    <Placemark>
      <name>Warsaw Downtown</name>
      <description><![CDATA[Warsaw Downtown<br><br>leírás: ]]></description>
      <styleUrl>#icon-1739-0288D1</styleUrl>
      <ExtendedData>
        <Data name="leírás">
          <value/>
        </Data>
      </ExtendedData>
      <Point>
        <coordinates>
          21.0070764,52.2293463,0
        </coordinates>
      </Point>
    </Placemark>
    <Placemark>
      <name>Malpensa Aeroporto T1</name>
      <description><![CDATA[Malpensa Aeroporto T1<br><br>leírás: ]]></description>
      <styleUrl>#icon-1739-0288D1</styleUrl>
      <ExtendedData>
        <Data name="leírás">
          <value/>
        </Data>
      </ExtendedData>
      <Point>
        <coordinates>
          8.71129,45.6271487,0
        </coordinates>
      </Point>
    </Placemark>
    <Placemark>
      <name>Lecco</name>
      <description><![CDATA[Lecco<br><br>leírás: ]]></description>
      <styleUrl>#icon-1739-0288D1</styleUrl>
      <ExtendedData>
        <Data name="leírás">
          <value/>
        </Data>
      </ExtendedData>
      <Point>
        <coordinates>
          9.3934052,45.8563706,0
        </coordinates>
      </Point>
    </Placemark>
    <Placemark>
      <name>Milano Centrale</name>
      <description><![CDATA[Milano Centrale<br><br>leírás: ]]></description>
      <styleUrl>#icon-1739-0288D1</styleUrl>
      <ExtendedData>
        <Data name="leírás">
          <value/>
        </Data>
      </ExtendedData>
      <Point>
        <coordinates>
          9.204822,45.487137,0
        </coordinates>
      </Point>
    </Placemark>
    <Placemark>
      <name>Varenna Esino</name>
      <description><![CDATA[<br><br>leírás: ]]></description>
      <styleUrl>#icon-1739-0288D1</styleUrl>
      <ExtendedData>
        <Data name="leírás">
          <value/>
        </Data>
      </ExtendedData>
      <Point>
        <coordinates>
          9.28621,46.014914,0
        </coordinates>
      </Point>
    </Placemark>
    <Placemark>
      <name>Tirano</name>
      <description><![CDATA[Tirano<br><br>leírás: ]]></description>
      <styleUrl>#icon-1739-0288D1</styleUrl>
      <ExtendedData>
        <Data name="leírás">
          <value/>
        </Data>
      </ExtendedData>
      <Point>
        <coordinates>
          10.1669763,46.2155266,0
        </coordinates>
      </Point>
    </Placemark>
    <Placemark>
      <name>Chur</name>
      <description><![CDATA[Chur<br><br>leírás: ]]></description>
      <styleUrl>#icon-1739-0288D1</styleUrl>
      <ExtendedData>
        <Data name="leírás">
          <value/>
        </Data>
      </ExtendedData>
      <Point>
        <coordinates>
          9.5299382,46.8536465,0
        </coordinates>
      </Point>
    </Placemark>
    <Placemark>
      <name>Sargans</name>
      <description><![CDATA[Sargans<br><br>leírás: ]]></description>
      <styleUrl>#icon-1739-0288D1</styleUrl>
      <ExtendedData>
        <Data name="leírás">
          <value/>
        </Data>
      </ExtendedData>
      <Point>
        <coordinates>
          9.4455363,47.0452462,0
        </coordinates>
      </Point>
    </Placemark>
    <Placemark>
      <name>Feldkirch</name>
      <description><![CDATA[Feldkirch<br><br>leírás: ]]></description>
      <styleUrl>#icon-1739-0288D1</styleUrl>
      <ExtendedData>
        <Data name="leírás">
          <value/>
        </Data>
      </ExtendedData>
      <Point>
        <coordinates>
          9.6038151,47.2410906,0
        </coordinates>
      </Point>
    </Placemark>
  </Document>
</kml>
